[
  {
    "name": "The Rex",
    "address": "194 Queen St W",
    "city": "Toronto",
    "instagramHandle": "@therextoronto",
    "website": "therex.ca",
    "latitude": 43.6509,
    "longitude": -79.3883,
    "crawlable": true,
    "eventsPath": "/events",
    "phoneNumber": "416-598-2475",
    "facebookLink": "https://www.facebook.com/therextoronto",
    "approved": true
  },
  {
    "name": "Drom Taberna",
    "address": "458 Queen St W",
    "city": "Toronto",
    "instagramHandle": "@dromtaberna",
    "website": "dromtaberna.com",
    "latitude": 43.6479,
    "longitude": -79.4004,
    "crawlable": true,
    "eventsPath": "/events-9O8Cm",
    "phoneNumber": "416-598-2475",
    "facebookLink": "https://www.facebook.com/dromtaberna",
    "approved": true
  },
  {
    "name": "Jazz Bistro",
    "address": "251 Victoria St",
    "city": "Toronto",
    "instagramHandle": "@jazzbistroto",
    "website": "jazzbistro.ca",
    "latitude": 43.6559,
    "longitude": -79.3794,
    "crawlable": true,
    "eventsPath": "/performance_calendar",
    "phoneNumber": "416-363-5299",
    "facebookLink": "https://www.facebook.com/JazzBistroTO",
    "approved": true
  },
  {
    "name": "The Emmet Ray",
    "address": "924 College St",
    "city": "Toronto",
    "instagramHandle": "@theemmetray",
    "website": "theemmetray.com",
    "latitude": 43.6559,
    "longitude": -79.3794,
    "crawlable": true,
    "eventsPath": "/events",
    "phoneNumber": "416-792-4497",
    "facebookLink": "https://www.facebook.com/TheEmmetRay",
    "approved": true
  },
  {
    "name": "The Reservoir Lounge",
    "address": "52 Wellington St E",
    "city": "Toronto",
    "instagramHandle": "@reservoirlounge",
    "website": "reservoirlounge.com",
    "latitude": 43.6486,
    "longitude": -79.3754,
    "crawlable": true,
    "eventsPath": "/live-shows",
    "phoneNumber": "416-955-0887",
    "facebookLink": "https://www.facebook.com/ReservoirLounge",
    "approved": true
  },
  {
    "name": "The Pilot",
    "address": "22 Cumberland St",
    "city": "Toronto",
    "photoName": "photo.jpg",
    "instagramHandle": "@thepilot_to",
    "website": "thepilot.ca",
    "latitude": 43.6709,
    "longitude": -79.3914,
    "crawlable": true,
    "eventsPath": "/happening-at-the-pilot",
    "phoneNumber": "416-923-5716",
    "facebookLink": "https://www.facebook.com/ThePilotTO",
    "approved": true
  },
  {
    "name": "Hirut Cafe",
    "address": "2050 Danforth Ave",
    "city": "Toronto",
    "photoName": "photo.jpg",
    "instagramHandle": "@hirut_cafe",
    "website": "hirutjazz.ca",
    "latitude": 43.6849,
    "longitude": -79.3174,
    "crawlable": true,
    "eventsPath": "/copy-of-live-shows",
    "phoneNumber": "416-551-7560",
    "facebookLink": "https://www.facebook.com/Hirut-Cafe-102171111218",
    "approved": true
  }
]
